{
  "description": "Geographic coordinates for all documented truck parking facilities",
  "coordinate_accuracy": "Approximate locations based on municipality and motorway information",
  "last_updated": "2025-10-30",
  "facilities": {
    "A2-001": {
      "name": "Haarrijn",
      "lat": 52.1667,
      "lng": 5.0000,
      "accuracy": "high",
      "source": "Exact 5Â° longitude per database documentation"
    },
    "A2-002": {
      "name": "Ruwiel",
      "lat": 52.1500,
      "lng": 4.9800,
      "accuracy": "medium",
      "source": "Stichtse Vecht municipality, A2 between exits 4-5"
    },
    "A2-003": {
      "name": "IJsselstein",
      "lat": 52.0200,
      "lng": 5.0400,
      "accuracy": "high",
      "source": "IJsselstein municipality center"
    },
    "A2-004": {
      "name": "Meiberg",
      "lat": 51.2500,
      "lng": 5.7000,
      "accuracy": "medium",
      "source": "Weert area, northern Limburg on A2"
    },
    "A2-005": {
      "name": "Vossedal",
      "lat": 50.9500,
      "lng": 5.7800,
      "accuracy": "medium",
      "source": "Beek municipality, southern Limburg on A2"
    },
    "A12-001": {
      "name": "Oudenhorst",
      "lat": 52.0500,
      "lng": 5.4200,
      "accuracy": "high",
      "source": "Border Woudenberg/Utrechtse Heuvelrug, A12 between exits 22-23"
    },
    "A12-002": {
      "name": "Bloemheuvel",
      "lat": 52.0520,
      "lng": 5.4220,
      "accuracy": "high",
      "source": "Opposite Oudenhorst, connected by pedestrian bridge"
    },
    "A15-001": {
      "name": "Ridderkerk",
      "lat": 51.8700,
      "lng": 4.6000,
      "accuracy": "low",
      "source": "Ridderkerk municipality area reference, exact location unconfirmed"
    },
    "A15-002": {
      "name": "Varakker",
      "lat": 51.9500,
      "lng": 5.5700,
      "accuracy": "medium",
      "source": "Kesteren area, Gelderland on A15"
    },
    "A15-003": {
      "name": "Staaldiep",
      "lat": 51.8500,
      "lng": 5.1000,
      "accuracy": "low",
      "source": "A15 corridor, municipality not specified"
    },
    "A27-001": {
      "name": "De Keizer",
      "lat": 51.7200,
      "lng": 4.9000,
      "accuracy": "high",
      "source": "Altena municipality, A27 between exits 21-22, north of Hank"
    },
    "A27-002": {
      "name": "Hank",
      "lat": 51.7220,
      "lng": 4.9020,
      "accuracy": "high",
      "source": "Altena municipality, opposite De Keizer"
    },
    "A27-003": {
      "name": "Galgeveld",
      "lat": 51.6500,
      "lng": 4.8800,
      "accuracy": "medium",
      "source": "Oosterhout municipality, A27 between exits 17-16"
    },
    "A27-004": {
      "name": "De Knoest",
      "lat": 51.9500,
      "lng": 5.1200,
      "accuracy": "medium",
      "source": "Near Hagestein, Utrecht province on A27"
    },
    "A27-005": {
      "name": "Eemakker",
      "lat": 52.2000,
      "lng": 5.2500,
      "accuracy": "medium",
      "source": "Utrecht province on A27"
    },
    "PRIV-001": {
      "name": "Maasvlakte Plaza",
      "lat": 51.9500,
      "lng": 4.0200,
      "accuracy": "high",
      "source": "Port of Rotterdam, Maasvlakte area"
    },
    "PRIV-002": {
      "name": "Truckparking Hazeldonk",
      "lat": 51.5800,
      "lng": 4.5700,
      "accuracy": "high",
      "source": "Breda municipality, near A16"
    },
    "PRIV-003": {
      "name": "Truckparq Alblasserdam",
      "lat": 51.8700,
      "lng": 4.6600,
      "accuracy": "high",
      "source": "Alblasserdam municipality, A15 Exit 22"
    }
  }
}
